#version,serial,flight,call,time,state,state_name,acceleration,pressure,altitude,height,speed,temperature,drogue_voltage,main_voltage,battery_voltage,accel_x,accel_y,accel_z,gyro_roll,gyro_pitch,gyro_yaw,mag_x,mag_y,mag_z,tilt,pyro,igniter_a,igniter_b,igniter_c,igniter_d,connected,locked,nsat,latitude,longitude,altitude,year,month,day,hour,minute,second,pad_dist,pad_range,pad_az,pad_el,pdop,hdop,vdop,sat01,sat02,sat03,sat04,sat05,sat06,sat07,sat08,sat09,sat10,sat11,sat12,sat13,sat14,sat15,sat16,sat17,sat18,sat19,sat20,sat21,sat22,sat23,sat24,sat25,sat26,sat27,sat28,sat29,sat30,sat31,sat32
6, 11016, 5,KK7PWS,    -0.30, 3,   boost,    0.49,  73426.00, 2634.83,   -0.11,    0.00, 11.9, 3.90, 3.92, 3.90,   9.12,  -1.33,  -1.27,  -8.47,   0.08,  -0.07,   0.25,  -0.23,  -0.12,   1.44, 3.90, 0.00, 0.00, 3.90, 0.00, 1, 1,  9,  39.0159228,-105.7106825,  2682.0, 2024,  4, 28, 17, 32, 39,        0,        0,  90,   0,   1.9,   1.0,   1.6,  0,  0, 34,  0,  0, 13,  0,  0,  0,  0, 27, 22,  0, 41,  0,  0, 39,  0, 28,  0,  0, 33,  0, 30,  0,  0,  0,  0,  0,  0,  0,  0
6, 11016, 5,KK7PWS,    -0.29, 3,   boost,    0.98,  73426.00, 2634.83,   -0.11,    0.00, 11.9, 3.90, 3.92, 3.90,  11.95,   1.15,  -1.07,  -9.93,   0.21,  -0.01,   0.26,  -0.23,  -0.12,   1.44, 3.90, 0.00, 0.00, 3.90, 0.00, 1, 1,  9,  39.0159228,-105.7106825,  2682.0, 2024,  4, 28, 17, 32, 39,        0,        0,  90,   0,   1.9,   1.0,   1.6,  0,  0, 34,  0,  0, 13,  0,  0,  0,  0, 27, 22,  0, 41,  0,  0, 39,  0, 28,  0,  0, 33,  0, 30,  0,  0,  0,  0,  0,  0,  0,  0
6, 11016, 5,KK7PWS,    -0.28, 3,   boost,   -1.96,  73426.00, 2634.83,   -0.11,    0.00, 11.9, 3.90, 3.92, 3.90,  10.75,   1.29,   0.37,  -7.31,   0.39,  -0.07,   0.25,  -0.23,  -0.12,   1.44, 3.90, 0.00, 0.00, 3.90, 0.00, 1, 1,  9,  39.0159228,-105.7106825,  2682.0, 2024,  4, 28, 17, 32, 39,        0,        0,  90,   0,   1.9,   1.0,   1.6,  0,  0, 34,  0,  0, 13,  0,  0,  0,  0, 27, 22,  0, 41,  0,  0, 39,  0, 28,  0,  0, 33,  0, 30,  0,  0,  0,  0,  0,  0,  0,  0
6, 11016, 5,KK7PWS,    -0.27, 3,   boost,   -0.49,  73423.00, 2635.15,    0.22,    0.00, 11.9, 3.90, 3.92, 3.90,   9.35,  -0.24,   0.17,  -6.21,   0.08,  -0.07,   0.25,  -0.23,  -0.12,   1.44, 3.90, 0.00, 0.00, 3.90, 0.00, 1, 1,  9,  39.0159228,-105.7106825,  2682.0, 2024,  4, 28, 17, 32, 39,        0,        0,  90,   0,   1.9,   1.0,   1.6,  0,  0, 34,  0,  0, 13,  0,  0,  0,  0, 27, 22,  0, 41,  0,  0, 39,  0, 28,  0,  0, 33,  0, 30,  0,  0,  0,  0,  0,  0,  0,  0
6, 11016, 5,KK7PWS,    -0.26, 3,   boost,   -1.47,  73423.00, 2635.15,    0.22,    0.00, 11.9, 3.90, 3.92, 3.90,  10.47,  -0.54,   1.37,  -6.21,  -0.04,  -0.26,   0.25,  -0.23,  -0.12,   1.44, 3.90, 0.00, 0.00, 3.90, 0.00, 1, 1,  9,  39.0159228,-105.7106825,  2682.0, 2024,  4, 28, 17, 32, 39,        0,        0,  90,   0,   1.9,   1.0,   1.6,  0,  0, 34,  0,  0, 13,  0,  0,  0,  0, 27, 22,  0, 41,  0,  0, 39,  0, 28,  0,  0, 33,  0, 30,  0,  0,  0,  0,  0,  0,  0,  0
6, 11016, 5,KK7PWS,    -0.25, 3,   boost,   -0.98,  73431.00, 2634.29,   -0.65,    0.00, 11.9, 3.90, 3.92, 3.90,  10.87,  -0.95,  -1.11,  -9.14,   0.63,  -0.13,   0.25,  -0.23,  -0.12,   1.44, 3.90, 0.00, 0.00, 3.90, 0.00, 1, 1,  9,  39.0159228,-105.7106825,  2682.0, 2024,  4, 28, 17, 32, 39,        0,        0,  90,   0,   1.9,   1.0,   1.6,  0,  0, 34,  0,  0, 13,  0,  0,  0,  0, 27, 22,  0, 41,  0,  0, 39,  0, 28,  0,  0, 33,  0, 30,  0,  0,  0,  0,  0,  0,  0,  0
6, 11016, 5,KK7PWS,    -0.24, 3,   boost,    1.47,  73431.00, 2634.29,   -0.65,    0.00, 11.9, 3.90, 3.92, 3.90,  10.27,  -0.52,   0.03,  -7.31,   0.14,  -0.56,   0.25,  -0.23,  -0.12,   1.44, 3.90, 0.00, 0.00, 3.90, 0.00, 1, 1,  9,  39.0159228,-105.7106825,  2682.0, 2024,  4, 28, 17, 32, 39,        0,        0,  90,   0,   1.9,   1.0,   1.6,  0,  0, 34,  0,  0, 13,  0,  0,  0,  0, 27, 22,  0, 41,  0,  0, 39,  0, 28,  0,  0, 33,  0, 30,  0,  0,  0,  0,  0,  0,  0,  0
6, 11016, 5,KK7PWS,    -0.23, 3,   boost,   -1.96,  73431.00, 2634.29,   -0.65,    0.00, 11.9, 3.90, 3.92, 3.90,   8.14,  -1.01,   0.65,  -4.38,  -0.22,  -1.05,   0.26,  -0.23,  -0.12,   1.44, 3.90, 0.00, 0.00, 3.90, 0.00, 1, 1,  9,  39.0159228,-105.7106825,  2682.0, 2024,  4, 28, 17, 32, 39,        0,        0,  90,   0,   1.9,   1.0,   1.6,  0,  0, 34,  0,  0, 13,  0,  0,  0,  0, 27, 22,  0, 41,  0,  0, 39,  0, 28,  0,  0, 33,  0, 30,  0,  0,  0,  0,  0,  0,  0,  0
6, 11016, 5,KK7PWS,    -0.22, 3,   boost,   -0.98,  73431.00, 2634.29,   -0.65,    0.00, 11.9, 3.90, 3.92, 3.90,  10.63,   0.24,  -1.21,  -7.43,   0.33,  -0.44,   0.26,  -0.23,  -0.12,   1.44, 3.90, 0.00, 0.00, 3.90, 0.00, 1, 1,  9,  39.0159228,-105.7106825,  2682.0, 2024,  4, 28, 17, 32, 39,        0,        0,  90,   0,   1.9,   1.0,   1.6,  0,  0, 34,  0,  0, 13,  0,  0,  0,  0, 27, 22,  0, 41,  0,  0, 39,  0, 28,  0,  0, 33,  0, 30,  0,  0,  0,  0,  0,  0,  0,  0
6, 11016, 5,KK7PWS,    -0.21, 3,   boost,    1.47,  73414.00, 2636.13,    1.19,    0.00, 11.9, 3.90, 3.92, 3.90,  10.71,   0.37,   0.17,  -5.36,   0.51,  -0.32,   0.26,  -0.23,  -0.12,   1.44, 3.90, 0.00, 0.00, 3.90, 0.00, 1, 1,  9,  39.0159228,-105.7106825,  2682.0, 2024,  4, 28, 17, 32, 39,        0,        0,  90,   0,   1.9,   1.0,   1.6,  0,  0, 34,  0,  0, 13,  0,  0,  0,  0, 27, 22,  0, 41,  0,  0, 39,  0, 28,  0,  0, 33,  0, 30,  0,  0,  0,  0,  0,  0,  0,  0
6, 11016, 5,KK7PWS,    -0.20, 3,   boost,   -0.00,  73414.00, 2636.13,    1.19,    0.00, 11.9, 3.90, 3.92, 3.90,   9.30,   0.62,   0.33,  -2.92,   0.14,   0.11,   0.25,  -0.23,  -0.12,   1.44, 3.90, 0.00, 0.00, 3.90, 0.00, 1, 1,  9,  39.0159228,-105.7106832,  2682.0, 2024,  4, 28, 17, 32, 40,        0,        0,   0,   0,   1.9,   1.0,   1.6,  0,  0, 33,  0,  0, 13,  0,  0,  0,  0, 27, 21,  0, 39,  0,  0, 38,  0, 28,  0,  0, 32,  0, 30,  0,  0,  0,  0,  0,  0,  0,  0
6, 11016, 5,KK7PWS,    -0.19, 3,   boost,   -0.00,  73431.00, 2634.29,   -0.65,    0.00, 11.9, 3.90, 3.92, 3.90,  10.01,  -0.27,  -1.07,  -5.72,   0.33,  -0.01,   0.26,  -0.23,  -0.12,   1.44, 3.90, 0.00, 0.00, 3.90, 0.00, 1, 1,  9,  39.0159228,-105.7106832,  2682.0, 2024,  4, 28, 17, 32, 40,        0,        0,   0,   0,   1.9,   1.0,   1.6,  0,  0, 33,  0,  0, 13,  0,  0,  0,  0, 27, 21,  0, 39,  0,  0, 38,  0, 28,  0,  0, 32,  0, 30,  0,  0,  0,  0,  0,  0,  0,  0
6, 11016, 5,KK7PWS,    -0.18, 3,   boost,   -0.00,  73431.00, 2634.29,   -0.65,    0.00, 11.9, 3.90, 3.92, 3.90,  10.38,  -0.47,   1.24,  -4.38,   0.08,  -0.38,   0.25,  -0.23,  -0.12,   1.44, 3.90, 0.00, 0.00, 3.90, 0.00, 1, 1,  9,  39.0159228,-105.7106832,  2682.0, 2024,  4, 28, 17, 32, 40,        0,        0,   0,   0,   1.9,   1.0,   1.6,  0,  0, 33,  0,  0, 13,  0,  0,  0,  0, 27, 21,  0, 39,  0,  0, 38,  0, 28,  0,  0, 32,  0, 30,  0,  0,  0,  0,  0,  0,  0,  0
6, 11016, 5,KK7PWS,    -0.17, 3,   boost,   -1.47,  73428.00, 2634.61,   -0.32,    0.00, 11.9, 3.90, 3.92, 3.90,   9.61,  -1.49,   0.66,  -4.07,   0.08,  -0.50,   0.25,  -0.23,  -0.12,   1.44, 3.90, 0.00, 0.00, 3.90, 0.00, 1, 1,  9,  39.0159228,-105.7106832,  2682.0, 2024,  4, 28, 17, 32, 40,        0,        0,   0,   0,   1.9,   1.0,   1.6,  0,  0, 33,  0,  0, 13,  0,  0,  0,  0, 27, 21,  0, 39,  0,  0, 38,  0, 28,  0,  0, 32,  0, 30,  0,  0,  0,  0,  0,  0,  0,  0
6, 11016, 5,KK7PWS,    -0.16, 3,   boost,   -0.49,  73428.00, 2634.61,   -0.32,    0.00, 11.9, 3.90, 3.92, 3.90,   9.28,  -0.79,  -0.05,  -5.17,  -0.40,  -0.74,   0.25,  -0.23,  -0.12,   1.44, 3.90, 0.00, 0.00, 3.90, 0.00, 1, 1,  9,  39.0159228,-105.7106832,  2682.0, 2024,  4, 28, 17, 32, 40,        0,        0,   0,   0,   1.9,   1.0,   1.6,  0,  0, 33,  0,  0, 13,  0,  0,  0,  0, 27, 21,  0, 39,  0,  0, 38,  0, 28,  0,  0, 32,  0, 30,  0,  0,  0,  0,  0,  0,  0,  0
6, 11016, 5,KK7PWS,    -0.15, 3,   boost,    1.47,  73430.00, 2634.40,   -0.54,    0.00, 11.9, 3.90, 3.92, 3.90,  10.04,   0.29,  -0.17,  -3.77,  -0.10,  -0.50,   0.25,  -0.23,  -0.12,   1.44, 3.90, 0.00, 0.00, 3.90, 0.00, 1, 1,  9,  39.0159228,-105.7106832,  2682.0, 2024,  4, 28, 17, 32, 40,        0,        0,   0,   0,   1.9,   1.0,   1.6,  0,  0, 33,  0,  0, 13,  0,  0,  0,  0, 27, 21,  0, 39,  0,  0, 38,  0, 28,  0,  0, 32,  0, 30,  0,  0,  0,  0,  0,  0,  0,  0
6, 11016, 5,KK7PWS,    -0.14, 3,   boost,    1.47,  73430.00, 2634.40,   -0.54,    0.00, 11.9, 3.90, 3.92, 3.90,   9.76,   0.36,  -0.74,  -2.24,   0.21,   0.11,   0.25,  -0.23,  -0.12,   1.44, 3.90, 0.00, 0.00, 3.90, 0.00, 1, 1,  9,  39.0159228,-105.7106832,  2682.0, 2024,  4, 28, 17, 32, 40,        0,        0,   0,   0,   1.9,   1.0,   1.6,  0,  0, 33,  0,  0, 13,  0,  0,  0,  0, 27, 21,  0, 39,  0,  0, 38,  0, 28,  0,  0, 32,  0, 30,  0,  0,  0,  0,  0,  0,  0,  0
6, 11016, 5,KK7PWS,    -0.13, 3,   boost,    0.49,  73421.00, 2635.37,    0.43,    0.00, 11.9, 3.90, 3.92, 3.90,  10.07,   0.31,  -0.25,  -2.37,   0.63,   0.29,   0.25,  -0.23,  -0.12,   1.44, 3.90, 0.00, 0.00, 3.90, 0.00, 1, 1,  9,  39.0159228,-105.7106832,  2682.0, 2024,  4, 28, 17, 32, 40,        0,        0,   0,   0,   1.9,   1.0,   1.6,  0,  0, 33,  0,  0, 13,  0,  0,  0,  0, 27, 21,  0, 39,  0,  0, 38,  0, 28,  0,  0, 32,  0, 30,  0,  0,  0,  0,  0,  0,  0,  0
6, 11016, 5,KK7PWS,    -0.12, 3,   boost,    0.49,  73421.00, 2635.37,    0.43,    0.00, 11.9, 3.90, 3.92, 3.90,  10.08,  -0.47,   0.12,  -2.30,   0.63,  -0.01,   0.25,  -0.23,  -0.12,   1.44, 3.90, 0.00, 0.00, 3.90, 0.00, 1, 1,  9,  39.0159228,-105.7106832,  2682.0, 2024,  4, 28, 17, 32, 40,        0,        0,   0,   0,   1.9,   1.0,   1.6,  0,  0, 33,  0,  0, 13,  0,  0,  0,  0, 27, 21,  0, 39,  0,  0, 38,  0, 28,  0,  0, 32,  0, 30,  0,  0,  0,  0,  0,  0,  0,  0
6, 11016, 5,KK7PWS,    -0.11, 3,   boost,    0.49,  73427.00, 2634.72,   -0.22,    0.01, 11.9, 3.90, 3.92, 3.90,   9.63,  -1.01,   0.75,  -1.02,   0.33,  -0.50,   0.25,  -0.23,  -0.13,   1.44, 3.90, 0.00, 0.00, 3.90, 0.00, 1, 1,  9,  39.0159228,-105.7106832,  2682.0, 2024,  4, 28, 17, 32, 40,        0,        0,   0,   0,   1.9,   1.0,   1.6,  0,  0, 33,  0,  0, 13,  0,  0,  0,  0, 27, 21,  0, 39,  0,  0, 38,  0, 28,  0,  0, 32,  0, 30,  0,  0,  0,  0,  0,  0,  0,  0
6, 11016, 5,KK7PWS,    -0.10, 3,   boost,   -0.00,  73427.00, 2634.72,   -0.22,    0.04, 11.9, 3.90, 3.92, 3.90,   9.71,  -0.64,   0.21,  -0.96,  -0.04,  -0.26,   0.25,  -0.23,  -0.12,   1.44, 3.90, 0.00, 0.00, 3.90, 0.00, 1, 1,  9,  39.0159228,-105.7106832,  2682.0, 2024,  4, 28, 17, 32, 40,        0,        0,   0,   0,   1.9,   1.0,   1.6,  0,  0, 33,  0,  0, 13,  0,  0,  0,  0, 27, 21,  0, 39,  0,  0, 38,  0, 28,  0,  0, 32,  0, 30,  0,  0,  0,  0,  0,  0,  0,  0
6, 11016, 5,KK7PWS,    -0.09, 3,   boost,    0.98,  73430.00, 2634.40,   -0.54,    0.13, 11.9, 3.90, 3.92, 3.90,  10.04,  -0.13,  -0.18,  -0.90,  -0.16,  -0.44,   0.25,  -0.23,  -0.12,   1.44, 3.90, 0.00, 0.00, 3.90, 0.00, 1, 1,  9,  39.0159228,-105.7106832,  2682.0, 2024,  4, 28, 17, 32, 40,        0,        0,   0,   0,   1.9,   1.0,   1.6,  0,  0, 33,  0,  0, 13,  0,  0,  0,  0, 27, 21,  0, 39,  0,  0, 38,  0, 28,  0,  0, 32,  0, 30,  0,  0,  0,  0,  0,  0,  0,  0
6, 11016, 5,KK7PWS,    -0.08, 3,   boost,    5.88,  73430.00, 2634.40,   -0.54,    0.34, 11.9, 3.90, 3.92, 3.90,  10.14,   0.42,  -0.06,   1.30,  -0.34,  -0.07,   0.25,  -0.24,  -0.13,   1.44, 3.90, 0.00, 0.00, 3.90, 0.00, 1, 1,  9,  39.0159228,-105.7106832,  2682.0, 2024,  4, 28, 17, 32, 40,        0,        0,   0,   0,   1.9,   1.0,   1.6,  0,  0, 33,  0,  0, 13,  0,  0,  0,  0, 27, 21,  0, 39,  0,  0, 38,  0, 28,  0,  0, 32,  0, 30,  0,  0,  0,  0,  0,  0,  0,  0
6, 11016, 5,KK7PWS,    -0.07, 3,   boost,   40.70,  73425.00, 2634.94,    0.00,    0.72, 11.9, 3.90, 3.92, 3.90,  12.29,  -0.68,  -0.37,   0.14,   0.14,   0.17,   0.25,  -0.23,  -0.13,   1.44, 3.90, 0.00, 0.00, 3.90, 0.00, 1, 1,  9,  39.0159228,-105.7106832,  2682.0, 2024,  4, 28, 17, 32, 40,        0,        0,   0,   0,   1.9,   1.0,   1.6,  0,  0, 33,  0,  0, 13,  0,  0,  0,  0, 27, 21,  0, 39,  0,  0, 38,  0, 28,  0,  0, 32,  0, 30,  0,  0,  0,  0,  0,  0,  0,  0
6, 11016, 5,KK7PWS,    -0.06, 3,   boost,   90.22,  73425.00, 2634.94,    0.00,    1.30, 11.9, 3.90, 3.92, 3.90,  79.23,   1.77,   4.95,  -2.43,   5.09,  -3.86,   0.25,  -0.23,  -0.13,   1.44, 3.90, 0.00, 0.00, 3.90, 0.00, 1, 1,  9,  39.0159228,-105.7106832,  2682.0, 2024,  4, 28, 17, 32, 40,        0,        0,   0,   0,   1.9,   1.0,   1.6,  0,  0, 33,  0,  0, 13,  0,  0,  0,  0, 27, 21,  0, 39,  0,  0, 38,  0, 28,  0,  0, 32,  0, 30,  0,  0,  0,  0,  0,  0,  0,  0
6, 11016, 5,KK7PWS,    -0.05, 3,   boost,   92.67,  73427.00, 2634.72,   -0.22,    2.07, 11.9, 3.90, 3.92, 3.90,  98.71,   1.89,   1.06,  -3.46,   3.56,  -1.54,   0.25,  -0.23,  -0.13,   1.44, 3.90, 0.00, 0.00, 3.90, 0.00, 1, 1,  9,  39.0159228,-105.7106832,  2682.0, 2024,  4, 28, 17, 32, 40,        0,        0,   0,   0,   1.9,   1.0,   1.6,  0,  0, 33,  0,  0, 13,  0,  0,  0,  0, 27, 21,  0, 39,  0,  0, 38,  0, 28,  0,  0, 32,  0, 30,  0,  0,  0,  0,  0,  0,  0,  0
6, 11016, 5,KK7PWS,    -0.04, 3,   boost,  108.36,  73427.00, 2634.72,   -0.22,    3.01, 11.9, 3.90, 3.92, 3.90,  90.93,   0.14,  -1.13,  -4.56,   4.11,   0.17,   0.25,  -0.23,  -0.13,   1.44, 3.90, 0.00, 0.00, 3.90, 0.00, 1, 1,  9,  39.0159228,-105.7106832,  2682.0, 2024,  4, 28, 17, 32, 40,        0,        0,   0,   0,   1.9,   1.0,   1.6,  0,  0, 33,  0,  0, 13,  0,  0,  0,  0, 27, 21,  0, 39,  0,  0, 38,  0, 28,  0,  0, 32,  0, 30,  0,  0,  0,  0,  0,  0,  0,  0
6, 11016, 5,KK7PWS,    -0.03, 3,   boost,  116.21,  73413.00, 2636.23,    1.30,    4.08, 11.9, 3.90, 3.92, 3.90, 117.33,  -4.48, -11.03, -42.28,   7.84,  -1.96,   0.25,  -0.23,  -0.13,   1.44, 3.90, 0.00, 0.00, 3.90, 0.00, 1, 1,  9,  39.0159228,-105.7106832,  2682.0, 2024,  4, 28, 17, 32, 40,        0,        0,   0,   0,   1.9,   1.0,   1.6,  0,  0, 33,  0,  0, 13,  0,  0,  0,  0, 27, 21,  0, 39,  0,  0, 38,  0, 28,  0,  0, 32,  0, 30,  0,  0,  0,  0,  0,  0,  0,  0
6, 11016, 5,KK7PWS,    -0.02, 3,   boost,  124.05,  73413.00, 2636.23,    1.30,    5.24, 11.9, 3.90, 3.92, 3.90, 127.23,  -2.60,   5.49, -37.28,   1.55,  -4.47,   0.25,  -0.23,  -0.13,   1.44, 3.90, 0.00, 0.00, 3.90, 0.00, 1, 1,  9,  39.0159228,-105.7106832,  2682.0, 2024,  4, 28, 17, 32, 40,        0,        0,   0,   0,   1.9,   1.0,   1.6,  0,  0, 33,  0,  0, 13,  0,  0,  0,  0, 27, 21,  0, 39,  0,  0, 38,  0, 28,  0,  0, 32,  0, 30,  0,  0,  0,  0,  0,  0,  0,  0
6, 11016, 5,KK7PWS,    -0.01, 3,   boost,  125.53,  73411.00, 2636.45,    1.51,    6.46, 11.9, 3.90, 3.92, 3.90, 135.96,  -2.72,   1.16, -57.97,  -0.10,  -7.70,   0.26,  -0.23,  -0.14,   1.44, 3.90, 0.00, 0.00, 3.90, 0.00, 1, 1,  9,  39.0159228,-105.7106832,  2682.0, 2024,  4, 28, 17, 32, 40,        0,        0,   0,   0,   1.9,   1.0,   1.6,  0,  0, 33,  0,  0, 13,  0,  0,  0,  0, 27, 21,  0, 39,  0,  0, 38,  0, 28,  0,  0, 32,  0, 30,  0,  0,  0,  0,  0,  0,  0,  0
6, 11016, 5,KK7PWS,     0.00, 3,   boost,  127.98,  73411.00, 2636.45,    1.51,    7.74, 11.9, 3.90, 3.92, 3.90, 139.42,  -2.26,  -2.74, -68.59,  -1.38, -11.36,   0.25,  -0.23,  -0.14,   1.44, 3.90, 0.00, 0.00, 3.90, 0.00, 1, 1,  9,  39.0159228,-105.7106832,  2682.0, 2024,  4, 28, 17, 32, 40,        0,        0,   0,   0,   1.9,   1.0,   1.6,  0,  0, 33,  0,  0, 13,  0,  0,  0,  0, 27, 21,  0, 39,  0,  0, 38,  0, 28,  0,  0, 32,  0, 30,  0,  0,  0,  0,  0,  0,  0,  0
6, 11016, 5,KK7PWS,     0.00, 3,   boost,  127.98,  73411.00, 2636.45,    1.51,    7.74, 11.9, 3.90, 3.92, 3.90, 139.42,  -2.26,  -2.74, -68.59,  -1.38, -11.36,   0.25,  -0.23,  -0.14,   1.44, 3.90, 0.00, 0.00, 3.90, 0.00, 1, 1,  9,  39.0159228,-105.7106832,  2682.0, 2024,  4, 28, 17, 32, 40,        0,        0,   0,   0,   1.9,   1.0,   1.6,  0,  0, 33,  0,  0, 13,  0,  0,  0,  0, 27, 21,  0, 39,  0,  0, 38,  0, 28,  0,  0, 32,  0, 30,  0,  0,  0,  0,  0,  0,  0,  0
6, 11016, 5,KK7PWS,     0.00, 3,   boost,  127.98,  73411.00, 2636.45,    1.51,    7.74, 11.9, 3.90, 3.92, 3.90, 139.42,  -2.26,  -2.74, -68.59,  -1.38, -11.36,   0.25,  -0.23,  -0.14,   1.44, 3.90, 0.00, 0.00, 3.90, 0.00, 1, 1,  9,  39.0159228,-105.7106832,  2682.0, 2024,  4, 28, 17, 32, 40,        0,        0,   0,   0,   1.9,   1.0,   1.6,  0,  0, 33,  0,  0, 13,  0,  0,  0,  0, 27, 21,  0, 39,  0,  0, 38,  0, 28,  0,  0, 32,  0, 30,  0,  0,  0,  0,  0,  0,  0,  0
6, 11016, 5,KK7PWS,     0.00, 3,   boost,  127.98,  73411.00, 2636.45,    1.51,    7.74, 11.9, 3.90, 3.92, 3.90, 139.42,  -2.26,  -2.74, -68.59,  -1.38, -11.36,   0.25,  -0.23,  -0.14,   1.44, 3.90, 0.00, 0.00, 3.90, 0.00, 1, 1,  9,  39.0159228,-105.7106832,  2682.0, 2024,  4, 28, 17, 32, 40,        0,        0,   0,   0,   1.9,   1.0,   1.6,  0,  0, 33,  0,  0, 13,  0,  0,  0,  0, 27, 21,  0, 39,  0,  0, 38,  0, 28,  0,  0, 32,  0, 30,  0,  0,  0,  0,  0,  0,  0,  0
6, 11016, 5,KK7PWS,     0.00, 3,   boost,  127.98,  73411.00, 2636.45,    1.51,    7.74, 11.9, 3.90, 3.92, 3.90, 139.42,  -2.26,  -2.74, -68.59,  -1.38, -11.36,   0.25,  -0.23,  -0.14,   1.44, 3.90, 0.00, 0.00, 3.90, 0.00, 1, 1,  9,  39.0159228,-105.7106832,  2682.0, 2024,  4, 28, 17, 32, 40,        0,        0,   0,   0,   1.9,   1.0,   1.6,  0,  0, 33,  0,  0, 13,  0,  0,  0,  0, 27, 21,  0, 39,  0,  0, 38,  0, 28,  0,  0, 32,  0, 30,  0,  0,  0,  0,  0,  0,  0,  0
6, 11016, 5,KK7PWS,     0.00, 3,   boost,  127.98,  73411.00, 2636.45,    1.51,    7.74, 11.9, 3.90, 3.92, 3.90, 139.42,  -2.26,  -2.74, -68.59,  -1.38, -11.36,   0.25,  -0.23,  -0.14,   1.44, 3.90, 0.00, 0.00, 3.90, 0.00, 1, 1,  9,  39.0159228,-105.7106832,  2682.0, 2024,  4, 28, 17, 32, 40,        0,        0,   0,   0,   1.9,   1.0,   1.6,  0,  0, 33,  0,  0, 13,  0,  0,  0,  0, 27, 21,  0, 39,  0,  0, 38,  0, 28,  0,  0, 32,  0, 30,  0,  0,  0,  0,  0,  0,  0,  0
6, 11016, 5,KK7PWS,     0.00, 3,   boost,  127.98,  73411.00, 2636.45,    1.51,    7.74, 11.9, 3.90, 3.92, 3.90, 139.42,  -2.26,  -2.74, -68.59,  -1.38, -11.36,   0.25,  -0.23,  -0.14,   1.44, 3.90, 0.00, 0.00, 3.90, 0.00, 1, 1,  9,  39.0159228,-105.7106832,  2682.0, 2024,  4, 28, 17, 32, 40,        0,        0,   0,   0,   1.9,   1.0,   1.6,  0,  0, 33,  0,  0, 13,  0,  0,  0,  0, 27, 21,  0, 39,  0,  0, 38,  0, 28,  0,  0, 32,  0, 30,  0,  0,  0,  0,  0,  0,  0,  0
6, 11016, 5,KK7PWS,     0.00, 3,   boost,  127.98,  73411.00, 2636.45,    1.51,    7.74, 11.9, 3.90, 3.92, 3.90, 139.42,  -2.26,  -2.74, -68.59,  -1.38, -11.36,   0.25,  -0.23,  -0.14,   1.44, 3.90, 0.00, 0.00, 3.90, 0.00, 1, 1,  9,  39.0159228,-105.7106832,  2682.0, 2024,  4, 28, 17, 32, 40,        0,        0,   0,   0,   1.9,   1.0,   1.6,  0,  0, 33,  0,  0, 13,  0,  0,  0,  0, 27, 21,  0, 39,  0,  0, 38,  0, 28,  0,  0, 32,  0, 30,  0,  0,  0,  0,  0,  0,  0,  0
6, 11016, 5,KK7PWS,     0.00, 3,   boost,  127.98,  73411.00, 2636.45,    1.51,    7.74, 11.9, 3.90, 3.92, 3.90, 139.42,  -2.26,  -2.74, -68.59,  -1.38, -11.36,   0.25,  -0.23,  -0.14,   1.44, 3.90, 0.00, 0.00, 3.90, 0.00, 1, 1,  9,  39.0159228,-105.7106832,  2682.0, 2024,  4, 28, 17, 32, 40,        0,        0,   0,   0,   1.9,   1.0,   1.6,  0,  0, 33,  0,  0, 13,  0,  0,  0,  0, 27, 21,  0, 39,  0,  0, 38,  0, 28,  0,  0, 32,  0, 30,  0,  0,  0,  0,  0,  0,  0,  0
6, 11016, 5,KK7PWS,     0.00, 3,   boost,  127.98,  73411.00, 2636.45,    1.51,    7.74, 11.9, 3.90, 3.92, 3.90, 139.42,  -2.26,  -2.74, -68.59,  -1.38, -11.36,   0.25,  -0.23,  -0.14,   1.44, 3.90, 0.00, 0.00, 3.90, 0.00, 1, 1,  9,  39.0159228,-105.7106832,  2682.0, 2024,  4, 28, 17, 32, 40,        0,        0,   0,   0,   1.9,   1.0,   1.6,  0,  0, 33,  0,  0, 13,  0,  0,  0,  0, 27, 21,  0, 39,  0,  0, 38,  0, 28,  0,  0, 32,  0, 30,  0,  0,  0,  0,  0,  0,  0,  0
6, 11016, 5,KK7PWS,     0.00, 3,   boost,  127.98,  73411.00, 2636.45,    1.51,    7.74, 11.9, 3.90, 3.92, 3.90, 139.42,  -2.26,  -2.74, -68.59,  -1.38, -11.36,   0.25,  -0.23,  -0.14,   1.45, 3.90, 0.00, 0.00, 3.90, 0.00, 1, 1,  9,  39.0159228,-105.7106832,  2682.0, 2024,  4, 28, 17, 32, 40,        0,        0,   0,   0,   1.9,   1.0,   1.6,  0,  0, 33,  0,  0, 13,  0,  0,  0,  0, 27, 21,  0, 39,  0,  0, 38,  0, 28,  0,  0, 32,  0, 30,  0,  0,  0,  0,  0,  0,  0,  0
6, 11016, 5,KK7PWS,     0.00, 3,   boost,  127.98,  73411.00, 2636.45,    1.51,    7.74, 11.9, 3.90, 3.92, 3.90, 139.42,  -2.26,  -2.74, -68.59,  -1.38, -11.36,   0.25,  -0.23,  -0.14,   1.46, 3.90, 0.00, 0.00, 3.90, 0.00, 1, 1,  9,  39.0159228,-105.7106832,  2682.0, 2024,  4, 28, 17, 32, 40,        0,        0,   0,   0,   1.9,   1.0,   1.6,  0,  0, 33,  0,  0, 13,  0,  0,  0,  0, 27, 21,  0, 39,  0,  0, 38,  0, 28,  0,  0, 32,  0, 30,  0,  0,  0,  0,  0,  0,  0,  0
6, 11016, 5,KK7PWS,     0.00, 3,   boost,  127.98,  73411.00, 2636.45,    1.51,    7.74, 11.9, 3.90, 3.92, 3.90, 139.42,  -2.26,  -2.74, -68.59,  -1.38, -11.36,   0.25,  -0.23,  -0.14,   1.46, 3.90, 0.00, 0.00, 3.90, 0.00, 1, 1,  9,  39.0159228,-105.7106832,  2682.0, 2024,  4, 28, 17, 32, 40,        0,        0,   0,   0,   1.9,   1.0,   1.6,  0,  0, 33,  0,  0, 13,  0,  0,  0,  0, 27, 21,  0, 39,  0,  0, 38,  0, 28,  0,  0, 32,  0, 30,  0,  0,  0,  0,  0,  0,  0,  0
6, 11016, 5,KK7PWS,     0.00, 3,   boost,  127.98,  73411.00, 2636.45,    1.51,    7.74, 11.9, 3.90, 3.92, 3.90, 139.42,  -2.26,  -2.74, -68.59,  -1.38, -11.36,   0.25,  -0.23,  -0.14,   1.46, 3.90, 0.00, 0.00, 3.90, 0.00, 1, 1,  9,  39.0159228,-105.7106832,  2682.0, 2024,  4, 28, 17, 32, 40,        0,        0,   0,   0,   1.9,   1.0,   1.6,  0,  0, 33,  0,  0, 13,  0,  0,  0,  0, 27, 21,  0, 39,  0,  0, 38,  0, 28,  0,  0, 32,  0, 30,  0,  0,  0,  0,  0,  0,  0,  0
6, 11016, 5,KK7PWS,     0.00, 3,   boost,  127.98,  73411.00, 2636.45,    1.51,    7.74, 11.9, 3.90, 3.92, 3.90, 139.42,  -2.26,  -2.74, -68.59,  -1.38, -11.36,   0.25,  -0.23,  -0.14,   1.46, 3.90, 0.00, 0.00, 3.90, 0.00, 1, 1,  9,  39.0159228,-105.7106832,  2682.0, 2024,  4, 28, 17, 32, 40,        0,        0,   0,   0,   1.9,   1.0,   1.6,  0,  0, 33,  0,  0, 13,  0,  0,  0,  0, 27, 21,  0, 39,  0,  0, 38,  0, 28,  0,  0, 32,  0, 30,  0,  0,  0,  0,  0,  0,  0,  0
6, 11016, 5,KK7PWS,     0.00, 3,   boost,  127.98,  73411.00, 2636.45,    1.51,    7.74, 11.9, 3.90, 3.92, 3.90, 139.42,  -2.26,  -2.74, -68.59,  -1.38, -11.36,   0.25,  -0.23,  -0.14,   1.46, 3.90, 0.00, 0.00, 3.90, 0.00, 1, 1,  9,  39.0159228,-105.7106832,  2682.0, 2024,  4, 28, 17, 32, 40,        0,        0,   0,   0,   1.9,   1.0,   1.6,  0,  0, 33,  0,  0, 13,  0,  0,  0,  0, 27, 21,  0, 39,  0,  0, 38,  0, 28,  0,  0, 32,  0, 30,  0,  0,  0,  0,  0,  0,  0,  0
6, 11016, 5,KK7PWS,     0.00, 3,   boost,  127.98,  73411.00, 2636.45,    1.51,    7.74, 11.9, 3.90, 3.92, 3.90, 139.42,  -2.26,  -2.74, -68.59,  -1.38, -11.36,   0.25,  -0.23,  -0.14,   1.46, 3.90, 0.00, 0.00, 3.90, 0.00, 1, 1,  9,  39.0159228,-105.7106832,  2682.0, 2024,  4, 28, 17, 32, 40,        0,        0,   0,   0,   1.9,   1.0,   1.6,  0,  0, 33,  0,  0, 13,  0,  0,  0,  0, 27, 21,  0, 39,  0,  0, 38,  0, 28,  0,  0, 32,  0, 30,  0,  0,  0,  0,  0,  0,  0,  0
6, 11016, 5,KK7PWS,     0.00, 3,   boost,  127.98,  73411.00, 2636.45,    1.51,    7.74, 11.9, 3.90, 3.92, 3.90, 139.42,  -2.26,  -2.74, -68.59,  -1.38, -11.36,   0.25,  -0.23,  -0.14,   1.46, 3.90, 0.00, 0.00, 3.90, 0.00, 1, 1,  9,  39.0159228,-105.7106832,  2682.0, 2024,  4, 28, 17, 32, 40,        0,        0,   0,   0,   1.9,   1.0,   1.6,  0,  0, 33,  0,  0, 13,  0,  0,  0,  0, 27, 21,  0, 39,  0,  0, 38,  0, 28,  0,  0, 32,  0, 30,  0,  0,  0,  0,  0,  0,  0,  0
6, 11016, 5,KK7PWS,     0.00, 3,   boost,  127.98,  73411.00, 2636.45,    1.51,    7.74, 11.9, 3.90, 3.92, 3.90, 139.42,  -2.26,  -2.74, -68.59,  -1.38, -11.36,   0.25,  -0.23,  -0.14,   1.46, 3.90, 0.00, 0.00, 3.90, 0.00, 1, 1,  9,  39.0159228,-105.7106832,  2682.0, 2024,  4, 28, 17, 32, 40,        0,        0,   0,   0,   1.9,   1.0,   1.6,  0,  0, 33,  0,  0, 13,  0,  0,  0,  0, 27, 21,  0, 39,  0,  0, 38,  0, 28,  0,  0, 32,  0, 30,  0,  0,  0,  0,  0,  0,  0,  0
6, 11016, 5,KK7PWS,     0.00, 3,   boost,  127.98,  73411.00, 2636.45,    1.51,    7.74, 11.9, 3.90, 3.92, 3.90, 139.42,  -2.26,  -2.74, -68.59,  -1.38, -11.36,   0.25,  -0.23,  -0.14,   1.47, 3.90, 0.00, 0.00, 3.90, 0.00, 1, 1,  9,  39.0159228,-105.7106832,  2682.0, 2024,  4, 28, 17, 32, 40,        0,        0,   0,   0,   1.9,   1.0,   1.6,  0,  0, 33,  0,  0, 13,  0,  0,  0,  0, 27, 21,  0, 39,  0,  0, 38,  0, 28,  0,  0, 32,  0, 30,  0,  0,  0,  0,  0,  0,  0,  0
6, 11016, 5,KK7PWS,     0.00, 3,   boost,  127.98,  73411.00, 2636.45,    1.51,    7.74, 11.9, 3.90, 3.92, 3.90, 139.42,  -2.26,  -2.74, -68.59,  -1.38, -11.36,   0.25,  -0.23,  -0.14,   1.48, 3.90, 0.00, 0.00, 3.90, 0.00, 1, 1,  9,  39.0159228,-105.7106832,  2682.0, 2024,  4, 28, 17, 32, 40,        0,        0,   0,   0,   1.9,   1.0,   1.6,  0,  0, 33,  0,  0, 13,  0,  0,  0,  0, 27, 21,  0, 39,  0,  0, 38,  0, 28,  0,  0, 32,  0, 30,  0,  0,  0,  0,  0,  0,  0,  0
6, 11016, 5,KK7PWS,     0.00, 3,   boost,  127.98,  73411.00, 2636.45,    1.51,    7.74, 11.9, 3.90, 3.92, 3.90, 139.42,  -2.26,  -2.74, -68.59,  -1.38, -11.36,   0.25,  -0.23,  -0.14,   1.48, 3.90, 0.00, 0.00, 3.90, 0.00, 1, 1,  9,  39.0159228,-105.7106832,  2682.0, 2024,  4, 28, 17, 32, 40,        0,        0,   0,   0,   1.9,   1.0,   1.6,  0,  0, 33,  0,  0, 13,  0,  0,  0,  0, 27, 21,  0, 39,  0,  0, 38,  0, 28,  0,  0, 32,  0, 30,  0,  0,  0,  0,  0,  0,  0,  0
6, 11016, 5,KK7PWS,     0.00, 3,   boost,  127.98,  73411.00, 2636.45,    1.51,    7.74, 11.9, 3.90, 3.92, 3.90, 139.42,  -2.26,  -2.74, -68.59,  -1.38, -11.36,   0.25,  -0.23,  -0.14,   1.48, 3.90, 0.00, 0.00, 3.90, 0.00, 1, 1,  9,  39.0159228,-105.7106832,  2682.0, 2024,  4, 28, 17, 32, 40,        0,        0,   0,   0,   1.9,   1.0,   1.6,  0,  0, 33,  0,  0, 13,  0,  0,  0,  0, 27, 21,  0, 39,  0,  0, 38,  0, 28,  0,  0, 32,  0, 30,  0,  0,  0,  0,  0,  0,  0,  0
6, 11016, 5,KK7PWS,     0.00, 3,   boost,  127.98,  73411.00, 2636.45,    1.51,    7.74, 11.9, 3.90, 3.92, 3.90, 139.42,  -2.26,  -2.74, -68.59,  -1.38, -11.36,   0.25,  -0.23,  -0.14,   1.47, 3.90, 0.00, 0.00, 3.90, 0.00, 1, 1,  9,  39.0159228,-105.7106832,  2682.0, 2024,  4, 28, 17, 32, 40,        0,        0,   0,   0,   1.9,   1.0,   1.6,  0,  0, 33,  0,  0, 13,  0,  0,  0,  0, 27, 21,  0, 39,  0,  0, 38,  0, 28,  0,  0, 32,  0, 30,  0,  0,  0,  0,  0,  0,  0,  0
6, 11016, 5,KK7PWS,     0.00, 3,   boost,  127.98,  73411.00, 2636.45,    1.51,    7.74, 11.9, 3.90, 3.92, 3.90, 139.42,  -2.26,  -2.74, -68.59,  -1.38, -11.36,   0.25,  -0.23,  -0.14,   1.47, 3.90, 0.00, 0.00, 3.90, 0.00, 1, 1,  9,  39.0159228,-105.7106832,  2682.0, 2024,  4, 28, 17, 32, 40,        0,        0,   0,   0,   1.9,   1.0,   1.6,  0,  0, 33,  0,  0, 13,  0,  0,  0,  0, 27, 21,  0, 39,  0,  0, 38,  0, 28,  0,  0, 32,  0, 30,  0,  0,  0,  0,  0,  0,  0,  0
6, 11016, 5,KK7PWS,     0.00, 3,   boost,  127.98,  73411.00, 2636.45,    1.51,    7.74, 11.9, 3.90, 3.92, 3.90, 139.42,  -2.26,  -2.74, -68.59,  -1.38, -11.36,   0.25,  -0.23,  -0.14,   1.48, 3.90, 0.00, 0.00, 3.90, 0.00, 1, 1,  9,  39.0159228,-105.7106832,  2682.0, 2024,  4, 28, 17, 32, 40,        0,        0,   0,   0,   1.9,   1.0,   1.6,  0,  0, 33,  0,  0, 13,  0,  0,  0,  0, 27, 21,  0, 39,  0,  0, 38,  0, 28,  0,  0, 32,  0, 30,  0,  0,  0,  0,  0,  0,  0,  0
6, 11016, 5,KK7PWS,     0.00, 3,   boost,  127.98,  73411.00, 2636.45,    1.51,    7.74, 11.9, 3.90, 3.92, 3.90, 139.42,  -2.26,  -2.74, -68.59,  -1.38, -11.36,   0.25,  -0.23,  -0.14,   1.48, 3.90, 0.00, 0.00, 3.90, 0.00, 1, 1,  9,  39.0159228,-105.7106832,  2682.0, 2024,  4, 28, 17, 32, 40,        0,        0,   0,   0,   1.9,   1.0,   1.6,  0,  0, 33,  0,  0, 13,  0,  0,  0,  0, 27, 21,  0, 39,  0,  0, 38,  0, 28,  0,  0, 32,  0, 30,  0,  0,  0,  0,  0,  0,  0,  0
6, 11016, 5,KK7PWS,     0.00, 3,   boost,  127.98,  73411.00, 2636.45,    1.51,    7.74, 11.9, 3.90, 3.92, 3.90, 139.42,  -2.26,  -2.74, -68.59,  -1.38, -11.36,   0.25,  -0.23,  -0.14,   1.48, 3.90, 0.00, 0.00, 3.90, 0.00, 1, 1,  9,  39.0159228,-105.7106832,  2682.0, 2024,  4, 28, 17, 32, 40,        0,        0,   0,   0,   1.9,   1.0,   1.6,  0,  0, 33,  0,  0, 13,  0,  0,  0,  0, 27, 21,  0, 39,  0,  0, 38,  0, 28,  0,  0, 32,  0, 30,  0,  0,  0,  0,  0,  0,  0,  0
6, 11016, 5,KK7PWS,     0.00, 3,   boost,  127.98,  73411.00, 2636.45,    1.51,    7.74, 11.9, 3.90, 3.92, 3.90, 139.42,  -2.26,  -2.74, -68.59,  -1.38, -11.36,   0.25,  -0.23,  -0.14,   1.48, 3.90, 0.00, 0.00, 3.90, 0.00, 1, 1,  9,  39.0159228,-105.7106832,  2682.0, 2024,  4, 28, 17, 32, 40,        0,        0,   0,   0,   1.9,   1.0,   1.6,  0,  0, 33,  0,  0, 13,  0,  0,  0,  0, 27, 21,  0, 39,  0,  0, 38,  0, 28,  0,  0, 32,  0, 30,  0,  0,  0,  0,  0,  0,  0,  0
6, 11016, 5,KK7PWS,     0.00, 3,   boost,  127.98,  73411.00, 2636.45,    1.51,    7.74, 11.9, 3.90, 3.92, 3.90, 139.42,  -2.26,  -2.74, -68.59,  -1.38, -11.36,   0.25,  -0.23,  -0.14,   1.48, 3.90, 0.00, 0.00, 3.90, 0.00, 1, 1,  9,  39.0159228,-105.7106832,  2682.0, 2024,  4, 28, 17, 32, 40,        0,        0,   0,   0,   1.9,   1.0,   1.6,  0,  0, 33,  0,  0, 13,  0,  0,  0,  0, 27, 21,  0, 39,  0,  0, 38,  0, 28,  0,  0, 32,  0, 30,  0,  0,  0,  0,  0,  0,  0,  0
6, 11016, 5,KK7PWS,     0.00, 3,   boost,  127.98,  73411.00, 2636.45,    1.51,    7.74, 11.9, 3.90, 3.92, 3.90, 139.42,  -2.26,  -2.74, -68.59,  -1.38, -11.36,   0.25,  -0.23,  -0.14,   1.50, 3.90, 0.00, 0.00, 3.90, 0.00, 1, 1,  9,  39.0159228,-105.7106832,  2682.0, 2024,  4, 28, 17, 32, 40,        0,        0,   0,   0,   1.9,   1.0,   1.6,  0,  0, 33,  0,  0, 13,  0,  0,  0,  0, 27, 21,  0, 39,  0,  0, 38,  0, 28,  0,  0, 32,  0, 30,  0,  0,  0,  0,  0,  0,  0,  0
6, 11016, 5,KK7PWS,     0.00, 3,   boost,  127.98,  73411.00, 2636.45,    1.51,    7.74, 11.9, 3.90, 3.92, 3.90, 139.42,  -2.26,  -2.74, -68.59,  -1.38, -11.36,   0.25,  -0.23,  -0.14,   1.51, 3.90, 0.00, 0.00, 3.90, 0.00, 1, 1,  9,  39.0159228,-105.7106832,  2682.0, 2024,  4, 28, 17, 32, 40,        0,        0,   0,   0,   1.9,   1.0,   1.6,  0,  0, 33,  0,  0, 13,  0,  0,  0,  0, 27, 21,  0, 39,  0,  0, 38,  0, 28,  0,  0, 32,  0, 30,  0,  0,  0,  0,  0,  0,  0,  0
6, 11016, 5,KK7PWS,     0.00, 3,   boost,  127.98,  73411.00, 2636.45,    1.51,    7.74, 11.9, 3.90, 3.92, 3.90, 139.42,  -2.26,  -2.74, -68.59,  -1.38, -11.36,   0.25,  -0.23,  -0.14,   1.49, 3.90, 0.00, 0.00, 3.90, 0.00, 1, 1,  9,  39.0159228,-105.7106832,  2682.0, 2024,  4, 28, 17, 32, 40,        0,        0,   0,   0,   1.9,   1.0,   1.6,  0,  0, 33,  0,  0, 13,  0,  0,  0,  0, 27, 21,  0, 39,  0,  0, 38,  0, 28,  0,  0, 32,  0, 30,  0,  0,  0,  0,  0,  0,  0,  0
6, 11016, 5,KK7PWS,     0.00, 3,   boost,  127.98,  73411.00, 2636.45,    1.51,    7.74, 11.9, 3.90, 3.92, 3.90, 139.42,  -2.26,  -2.74, -68.59,  -1.38, -11.36,   0.25,  -0.23,  -0.14,   1.49, 3.90, 0.00, 0.00, 3.90, 0.00, 1, 1,  9,  39.0159228,-105.7106832,  2682.0, 2024,  4, 28, 17, 32, 40,        0,        0,   0,   0,   1.9,   1.0,   1.6,  0,  0, 33,  0,  0, 13,  0,  0,  0,  0, 27, 21,  0, 39,  0,  0, 38,  0, 28,  0,  0, 32,  0, 30,  0,  0,  0,  0,  0,  0,  0,  0
6, 11016, 5,KK7PWS,     0.00, 3,   boost,  127.98,  73411.00, 2636.45,    1.51,    7.74, 11.9, 3.90, 3.92, 3.90, 139.42,  -2.26,  -2.74, -68.59,  -1.38, -11.36,   0.25,  -0.23,  -0.14,   1.53, 3.90, 0.00, 0.00, 3.90, 0.00, 1, 1,  9,  39.0159228,-105.7106832,  2682.0, 2024,  4, 28, 17, 32, 40,        0,        0,   0,   0,   1.9,   1.0,   1.6,  0,  0, 33,  0,  0, 13,  0,  0,  0,  0, 27, 21,  0, 39,  0,  0, 38,  0, 28,  0,  0, 32,  0, 30,  0,  0,  0,  0,  0,  0,  0,  0
6, 11016, 5,KK7PWS,     0.00, 3,   boost,  127.98,  73411.00, 2636.45,    1.51,    7.74, 11.9, 3.90, 3.92, 3.90, 139.42,  -2.26,  -2.74, -68.59,  -1.38, -11.36,   0.25,  -0.23,  -0.14,   1.61, 3.90, 0.00, 0.00, 3.90, 0.00, 1, 1,  9,  39.0159228,-105.7106832,  2682.0, 2024,  4, 28, 17, 32, 40,        0,        0,   0,   0,   1.9,   1.0,   1.6,  0,  0, 33,  0,  0, 13,  0,  0,  0,  0, 27, 21,  0, 39,  0,  0, 38,  0, 28,  0,  0, 32,  0, 30,  0,  0,  0,  0,  0,  0,  0,  0
6, 11016, 5,KK7PWS,     0.00, 3,   boost,  127.98,  73411.00, 2636.45,    1.51,    7.74, 11.9, 3.90, 3.92, 3.90, 139.42,  -2.26,  -2.74, -68.59,  -1.38, -11.36,   0.25,  -0.23,  -0.14,   1.72, 3.90, 0.00, 0.00, 3.90, 0.00, 1, 1,  9,  39.0159228,-105.7106832,  2682.0, 2024,  4, 28, 17, 32, 40,        0,        0,   0,   0,   1.9,   1.0,   1.6,  0,  0, 33,  0,  0, 13,  0,  0,  0,  0, 27, 21,  0, 39,  0,  0, 38,  0, 28,  0,  0, 32,  0, 30,  0,  0,  0,  0,  0,  0,  0,  0
6, 11016, 5,KK7PWS,     0.01, 3,   boost,  136.31,  73417.00, 2635.80,    0.86,    9.05, 11.9, 3.90, 3.92, 3.90, 142.05,  -4.26,   2.75, -53.76,  -4.56, -15.03,   0.25,  -0.23,  -0.14,   1.88, 3.90, 0.00, 0.00, 3.90, 0.00, 1, 1,  9,  39.0159228,-105.7106832,  2682.0, 2024,  4, 28, 17, 32, 40,        0,        0,   0,   0,   1.9,   1.0,   1.6,  0,  0, 33,  0,  0, 13,  0,  0,  0,  0, 27, 21,  0, 39,  0,  0, 38,  0, 28,  0,  0, 32,  0, 30,  0,  0,  0,  0,  0,  0,  0,  0
6, 11016, 5,KK7PWS,     0.01, 3,   boost,  136.31,  73417.00, 2635.80,    0.86,    9.05, 11.9, 3.90, 3.92, 3.90, 142.05,  -4.26,   2.75, -53.76,  -4.56, -15.03,   0.25,  -0.23,  -0.14,   1.88, 3.90, 0.00, 0.00, 3.90, 0.00, 1, 1,  9,  39.0159228,-105.7106832,  2682.0, 2024,  4, 28, 17, 32, 40,        0,        0,   0,   0,   1.9,   1.0,   1.6,  0,  0, 33,  0,  0, 13,  0,  0,  0,  0, 27, 21,  0, 39,  0,  0, 38,  0, 28,  0,  0, 32,  0, 30,  0,  0,  0,  0,  0,  0,  0,  0
6, 11016, 5,KK7PWS,     0.02, 3,   boost,  137.78,  73417.00, 2635.80,    0.86,   10.39, 11.9, 3.87, 3.91, 3.89, 146.75,   2.62,   3.21, -78.72,  -6.14, -18.02,   0.26,  -0.22,  -0.14,   2.07, 3.89, 0.00, 0.00, 3.92, 0.00, 1, 1,  9,  39.0159228,-105.7106832,  2682.0, 2024,  4, 28, 17, 32, 40,        0,        0,   0,   0,   1.9,   1.0,   1.6,  0,  0, 33,  0,  0, 13,  0,  0,  0,  0, 27, 21,  0, 39,  0,  0, 38,  0, 28,  0,  0, 32,  0, 30,  0,  0,  0,  0,  0,  0,  0,  0
6, 11016, 5,KK7PWS,     0.02, 3,   boost,  137.78,  73417.00, 2635.80,    0.86,   10.39, 11.9, 3.87, 3.91, 3.89, 146.75,   2.62,   3.21, -78.72,  -6.14, -18.02,   0.26,  -0.22,  -0.14,   2.07, 3.89, 0.00, 0.00, 3.92, 0.00, 1, 1,  9,  39.0159228,-105.7106832,  2682.0, 2024,  4, 28, 17, 32, 40,        0,        0,   0,   0,   1.9,   1.0,   1.6,  0,  0, 33,  0,  0, 13,  0,  0,  0,  0, 27, 21,  0, 39,  0,  0, 38,  0, 28,  0,  0, 32,  0, 30,  0,  0,  0,  0,  0,  0,  0,  0
6, 11016, 5,KK7PWS,     0.03, 3,   boost,  138.27,  73418.00, 2635.69,    0.76,   11.75, 11.9, 3.87, 3.91, 3.89, 149.53,   2.65,  -5.09, -81.59,  -4.62, -16.67,   0.26,  -0.22,  -0.14,   2.24, 3.89, 0.00, 0.00, 3.92, 0.00, 1, 1,  9,  39.0159228,-105.7106832,  2682.0, 2024,  4, 28, 17, 32, 40,        0,        0,   0,   0,   1.9,   1.0,   1.6,  0,  0, 33,  0,  0, 13,  0,  0,  0,  0, 27, 21,  0, 39,  0,  0, 38,  0, 28,  0,  0, 32,  0, 30,  0,  0,  0,  0,  0,  0,  0,  0
6, 11016, 5,KK7PWS,     0.04, 3,   boost,  138.27,  73418.00, 2635.69,    0.76,   13.12, 11.9, 3.87, 3.91, 3.89, 150.49,   3.53,  -1.93, -61.20,  -1.50, -11.91,   0.26,  -0.22,  -0.15,   2.36, 3.89, 0.00, 0.00, 3.92, 0.00, 1, 1,  9,  39.0159228,-105.7106832,  2682.0, 2024,  4, 28, 17, 32, 40,        0,        0,   0,   0,   1.9,   1.0,   1.6,  0,  0, 33,  0,  0, 13,  0,  0,  0,  0, 27, 21,  0, 39,  0,  0, 38,  0, 28,  0,  0, 32,  0, 30,  0,  0,  0,  0,  0,  0,  0,  0
6, 11016, 5,KK7PWS,     0.05, 3,   boost,  139.25,  73411.00, 2636.45,    1.51,   14.49, 11.9, 3.87, 3.91, 3.89, 151.22,  -0.80,   1.93,-145.43,   0.02,  -9.84,   0.26,  -0.22,  -0.15,   2.45, 3.89, 0.00, 0.00, 3.92, 0.00, 1, 1,  9,  39.0159228,-105.7106832,  2682.0, 2024,  4, 28, 17, 32, 40,        0,        0,   0,   0,   1.9,   1.0,   1.6,  0,  0, 33,  0,  0, 13,  0,  0,  0,  0, 27, 21,  0, 39,  0,  0, 38,  0, 28,  0,  0, 32,  0, 30,  0,  0,  0,  0,  0,  0,  0,  0
6, 11016, 5,KK7PWS,     0.06, 3,   boost,  136.31,  73411.00, 2636.45,    1.51,   15.86, 11.9, 3.87, 3.91, 3.89, 150.70,  -1.96,  -0.43,-157.82,   0.21, -10.51,   0.26,  -0.21,  -0.16,   2.55, 3.89, 0.00, 0.00, 3.92, 0.00, 1, 1,  9,  39.0159228,-105.7106832,  2682.0, 2024,  4, 28, 17, 32, 40,        0,        0,   0,   0,   1.9,   1.0,   1.6,  0,  0, 33,  0,  0, 13,  0,  0,  0,  0, 27, 21,  0, 39,  0,  0, 38,  0, 28,  0,  0, 32,  0, 30,  0,  0,  0,  0,  0,  0,  0,  0
6, 11016, 5,KK7PWS,     0.07, 3,   boost,  135.82,  73407.00, 2636.88,    1.94,   17.22, 11.9, 3.87, 3.91, 3.89, 147.74,   1.59,  -0.90,-165.82,   0.21, -11.06,   0.26,  -0.21,  -0.16,   2.66, 3.89, 0.00, 0.00, 3.92, 0.00, 1, 1,  9,  39.0159228,-105.7106832,  2682.0, 2024,  4, 28, 17, 32, 40,        0,        0,   0,   0,   1.9,   1.0,   1.6,  0,  0, 33,  0,  0, 13,  0,  0,  0,  0, 27, 21,  0, 39,  0,  0, 38,  0, 28,  0,  0, 32,  0, 30,  0,  0,  0,  0,  0,  0,  0,  0
6, 11016, 5,KK7PWS,     0.08, 3,   boost,  132.39,  73407.00, 2636.88,    1.94,   18.57, 11.9, 3.87, 3.91, 3.89, 146.27,   0.07,  -0.65,-151.96,   0.14, -11.79,   0.26,  -0.21,  -0.17,   2.77, 3.89, 0.00, 0.00, 3.92, 0.00, 1, 1,  9,  39.0159228,-105.7106832,  2682.0, 2024,  4, 28, 17, 32, 40,        0,        0,   0,   0,   1.9,   1.0,   1.6,  0,  0, 33,  0,  0, 13,  0,  0,  0,  0, 27, 21,  0, 39,  0,  0, 38,  0, 28,  0,  0, 32,  0, 30,  0,  0,  0,  0,  0,  0,  0,  0
6, 11016, 5,KK7PWS,     0.09, 3,   boost,  135.33,  73389.00, 2638.83,    3.89,   19.90, 11.9, 3.87, 3.91, 3.89, 145.97,  -2.00,   1.51,-150.32,   0.02, -12.40,   0.26,  -0.20,  -0.17,   2.89, 3.89, 0.00, 0.00, 3.92, 0.00, 1, 1,  9,  39.0159228,-105.7106832,  2682.0, 2024,  4, 28, 17, 32, 40,        0,        0,   0,   0,   1.9,   1.0,   1.6,  0,  0, 33,  0,  0, 13,  0,  0,  0,  0, 27, 21,  0, 39,  0,  0, 38,  0, 28,  0,  0, 32,  0, 30,  0,  0,  0,  0,  0,  0,  0,  0
6, 11016, 5,KK7PWS,     0.10, 3,   boost,  131.90,  73389.00, 2638.83,    3.89,   21.23, 11.9, 3.87, 3.91, 3.89, 145.09,   1.15,  -0.28,-132.43,  -0.22, -12.65,   0.26,  -0.20,  -0.17,   3.01, 3.89, 0.00, 0.00, 3.92, 0.00, 1, 1,  9,  39.0159228,-105.7106832,  2682.0, 2024,  4, 28, 17, 32, 40,        0,        0,   0,   0,   1.9,   1.0,   1.6,  0,  0, 33,  0,  0, 13,  0,  0,  0,  0, 27, 21,  0, 39,  0,  0, 38,  0, 28,  0,  0, 32,  0, 30,  0,  0,  0,  0,  0,  0,  0,  0
6, 11016, 5,KK7PWS,     0.11, 3,   boost,  129.45,  73380.00, 2639.80,    4.86,   22.55, 11.9, 3.87, 3.91, 3.89, 145.11,  -0.41,   1.03,-124.80,   0.82, -12.46,   0.26,  -0.20,  -0.17,   3.12, 3.89, 0.00, 0.00, 3.92, 0.00, 1, 1,  9,  39.0159228,-105.7106832,  2682.0, 2024,  4, 28, 17, 32, 40,        0,        0,   0,   0,   1.9,   1.0,   1.6,  0,  0, 33,  0,  0, 13,  0,  0,  0,  0, 27, 21,  0, 39,  0,  0, 38,  0, 28,  0,  0, 32,  0, 30,  0,  0,  0,  0,  0,  0,  0,  0
6, 11016, 5,KK7PWS,     0.12, 3,   boost,  130.92,  73380.00, 2639.80,    4.86,   23.88, 11.9, 3.87, 3.91, 3.89, 141.81, -23.39,   9.79, -54.61,  -3.52, -21.50,   0.26,  -0.20,  -0.18,   3.34, 3.89, 0.00, 0.00, 3.92, 0.00, 1, 1,  9,  39.0159228,-105.7106832,  2682.0, 2024,  4, 28, 17, 32, 40,        0,        0,   0,   0,   1.9,   1.0,   1.6,  0,  0, 33,  0,  0, 13,  0,  0,  0,  0, 27, 21,  0, 39,  0,  0, 38,  0, 28,  0,  0, 32,  0, 30,  0,  0,  0,  0,  0,  0,  0,  0
6, 11016, 5,KK7PWS,     0.13, 3,   boost,  132.39,  73397.00, 2637.96,    3.03,   25.20, 11.9, 3.87, 3.91, 3.89, 142.20,   1.96,  -1.62,  45.42,   1.49, -20.95,   0.26,  -0.20,  -0.17,   3.53, 3.89, 0.00, 0.00, 3.92, 0.00, 1, 1,  9,  39.0159228,-105.7106832,  2682.0, 2024,  4, 28, 17, 32, 40,        0,        0,   0,   0,   1.9,   1.0,   1.6,  0,  0, 33,  0,  0, 13,  0,  0,  0,  0, 27, 21,  0, 39,  0,  0, 38,  0, 28,  0,  0, 32,  0, 30,  0,  0,  0,  0,  0,  0,  0,  0
6, 11016, 5,KK7PWS,     0.14, 3,   boost,  139.74,  73397.00, 2637.96,    3.03,   26.54, 11.9, 3.87, 3.91, 3.89, 143.34,  30.53, -14.11, 103.47,   9.79,  -8.92,   0.26,  -0.20,  -0.17,   3.58, 3.89, 0.00, 0.00, 3.92, 0.00, 1, 1,  9,  39.0159228,-105.7106832,  2682.0, 2024,  4, 28, 17, 32, 40,        0,        0,   0,   0,   1.9,   1.0,   1.6,  0,  0, 33,  0,  0, 13,  0,  0,  0,  0, 27, 21,  0, 39,  0,  0, 38,  0, 28,  0,  0, 32,  0, 30,  0,  0,  0,  0,  0,  0,  0,  0
6, 11016, 5,KK7PWS,     0.15, 3,   boost,  129.94,  73380.00, 2639.80,    4.86,   27.88, 11.9, 3.87, 3.91, 3.89, 153.50,  -2.53,   3.81,  82.59, -16.15, -15.88,   0.26,  -0.20,  -0.17,   3.78, 3.89, 0.00, 0.00, 3.92, 0.00, 1, 1,  9,  39.0159228,-105.7106832,  2682.0, 2024,  4, 28, 17, 32, 40,        0,        0,   0,   0,   1.9,   1.0,   1.6,  0,  0, 33,  0,  0, 13,  0,  0,  0,  0, 27, 21,  0, 39,  0,  0, 38,  0, 28,  0,  0, 32,  0, 30,  0,  0,  0,  0,  0,  0,  0,  0
6, 11016, 5,KK7PWS,     0.16, 3,   boost,  136.80,  73380.00, 2639.80,    4.86,   29.24, 11.9, 3.87, 3.91, 3.89, 144.74,  -7.54,   2.85,  78.69,  -1.14, -21.98,   0.26,  -0.20,  -0.16,   4.00, 3.89, 0.00, 0.00, 3.92, 0.00, 1, 1,  9,  39.0159228,-105.7106832,  2682.0, 2024,  4, 28, 17, 32, 40,        0,        0,   0,   0,   1.9,   1.0,   1.6,  0,  0, 33,  0,  0, 13,  0,  0,  0,  0, 27, 21,  0, 39,  0,  0, 38,  0, 28,  0,  0, 32,  0, 30,  0,  0,  0,  0,  0,  0,  0,  0
6, 11016, 5,KK7PWS,     0.17, 3,   boost,  140.24,  73379.00, 2639.91,    4.97,   30.60, 11.9, 3.87, 3.91, 3.89, 139.42,  -2.44,  -4.84,  51.41,   3.14, -23.88,   0.26,  -0.19,  -0.17,   4.22, 3.89, 0.00, 0.00, 3.92, 0.00, 1, 1,  9,  39.0159228,-105.7106832,  2682.0, 2024,  4, 28, 17, 32, 40,        0,        0,   0,   0,   1.9,   1.0,   1.6,  0,  0, 33,  0,  0, 13,  0,  0,  0,  0, 27, 21,  0, 39,  0,  0, 38,  0, 28,  0,  0, 32,  0, 30,  0,  0,  0,  0,  0,  0,  0,  0
6, 11016, 5,KK7PWS,     0.18, 3,   boost,  138.76,  73379.00, 2639.91,    4.97,   31.97, 11.9, 3.87, 3.91, 3.89, 153.00,   2.49,  -1.05, -29.34,   3.32, -30.77,   0.26,  -0.19,  -0.17,   4.51, 3.89, 0.00, 0.00, 3.92, 0.00, 1, 1,  9,  39.0159228,-105.7106832,  2682.0, 2024,  4, 28, 17, 32, 40,        0,        0,   0,   0,   1.9,   1.0,   1.6,  0,  0, 33,  0,  0, 13,  0,  0,  0,  0, 27, 21,  0, 39,  0,  0, 38,  0, 28,  0,  0, 32,  0, 30,  0,  0,  0,  0,  0,  0,  0,  0
6, 11016, 5,KK7PWS,     0.19, 3,   boost,  137.29,  73367.00, 2641.21,    6.27,   33.35, 11.9, 3.87, 3.91, 3.89, 151.32,   9.81,   4.37, -54.92,  -0.28, -25.65,   0.26,  -0.19,  -0.17,   4.76, 3.89, 0.00, 0.00, 3.92, 0.00, 1, 1,  9,  39.0159228,-105.7106832,  2682.0, 2024,  4, 28, 17, 32, 40,        0,        0,   0,   0,   1.9,   1.0,   1.6,  0,  0, 33,  0,  0, 13,  0,  0,  0,  0, 27, 21,  0, 39,  0,  0, 38,  0, 28,  0,  0, 32,  0, 30,  0,  0,  0,  0,  0,  0,  0,  0
6, 11016, 5,KK7PWS,     0.20, 3,   boost,  137.78,  73367.00, 2641.21,    6.27,   34.72, 11.9, 3.87, 3.91, 3.89, 148.77,   4.88,  -1.62, -50.28,  -0.59, -23.45,   0.26,  -0.18,  -0.17,   4.99, 3.89, 0.00, 0.00, 3.92, 0.00, 1, 1,  9,  39.0159228,-105.7106832,  2682.0, 2024,  4, 28, 17, 32, 40,        0,        0,   0,   0,   1.9,   1.0,   1.6,  0,  0, 33,  0,  0, 13,  0,  0,  0,  0, 27, 21,  0, 39,  0,  0, 38,  0, 28,  0,  0, 32,  0, 30,  0,  0,  0,  0,  0,  0,  0,  0
6, 11016, 5,KK7PWS,     0.21, 3,   boost,  137.78,  73358.00, 2642.18,    7.24,   36.09, 11.9, 3.87, 3.91, 3.89, 151.19,  -8.76,  -1.33, -27.94,  -1.87, -21.86,   0.26,  -0.18,  -0.17,   5.21, 3.89, 0.00, 0.00, 3.92, 0.00, 1, 1,  9,  39.0159228,-105.7106832,  2682.0, 2024,  4, 28, 17, 32, 40,        0,        0,   0,   0,   1.9,   1.0,   1.6,  0,  0, 33,  0,  0, 13,  0,  0,  0,  0, 27, 21,  0, 39,  0,  0, 38,  0, 28,  0,  0, 32,  0, 30,  0,  0,  0,  0,  0,  0,  0,  0
6, 11016, 5,KK7PWS,     0.22, 3,   boost,  136.80,  73358.00, 2642.18,    7.24,   37.45, 11.9, 3.87, 3.91, 3.89, 150.55,  -5.51,  -2.59, -24.34,   0.21, -28.39,   0.26,  -0.18,  -0.17,   5.49, 3.89, 0.00, 0.00, 3.92, 0.00, 1, 1,  9,  39.0159228,-105.7106832,  2682.0, 2024,  4, 28, 17, 32, 40,        0,        0,   0,   0,   1.9,   1.0,   1.6,  0,  0, 33,  0,  0, 13,  0,  0,  0,  0, 27, 21,  0, 39,  0,  0, 38,  0, 28,  0,  0, 32,  0, 30,  0,  0,  0,  0,  0,  0,  0,  0
6, 11016, 5,KK7PWS,     0.23, 3,   boost,  135.33,  73342.00, 2643.91,    8.97,   38.81, 11.9, 3.87, 3.91, 3.89, 148.23,   6.60,   2.49, -25.68,   2.28, -31.38,   0.26,  -0.18,  -0.17,   5.79, 3.89, 0.00, 0.00, 3.92, 0.00, 1, 1,  9,  39.0159228,-105.7106832,  2682.0, 2024,  4, 28, 17, 32, 40,        0,        0,   0,   0,   1.9,   1.0,   1.6,  0,  0, 33,  0,  0, 13,  0,  0,  0,  0, 27, 21,  0, 39,  0,  0, 38,  0, 28,  0,  0, 32,  0, 30,  0,  0,  0,  0,  0,  0,  0,  0
6, 11016, 5,KK7PWS,     0.24, 3,   boost,  136.80,  73342.00, 2643.91,    8.97,   40.17, 11.9, 3.87, 3.91, 3.89, 149.75,   7.25,   3.84, -67.67,  -1.32, -27.05,   0.27,  -0.17,  -0.17,   6.06, 3.89, 0.00, 0.00, 3.92, 0.00, 1, 1,  9,  39.0159228,-105.7106832,  2682.0, 2024,  4, 28, 17, 32, 40,        0,        0,   0,   0,   1.9,   1.0,   1.6,  0,  0, 33,  0,  0, 13,  0,  0,  0,  0, 27, 21,  0, 39,  0,  0, 38,  0, 28,  0,  0, 32,  0, 30,  0,  0,  0,  0,  0,  0,  0,  0
6, 11016, 5,KK7PWS,     0.25, 3,   boost,  137.29,  73344.00, 2643.69,    8.76,   41.53, 11.9, 3.87, 3.91, 3.89, 148.78,   0.96,  -1.98, -67.06,  -0.59, -24.30,   0.27,  -0.17,  -0.17,   6.30, 3.89, 0.00, 0.00, 3.92, 0.00, 1, 1,  9,  39.0159228,-105.7106832,  2682.0, 2024,  4, 28, 17, 32, 40,        0,        0,   0,   0,   1.9,   1.0,   1.6,  0,  0, 33,  0,  0, 13,  0,  0,  0,  0, 27, 21,  0, 39,  0,  0, 38,  0, 28,  0,  0, 32,  0, 30,  0,  0,  0,  0,  0,  0,  0,  0
6, 11016, 5,KK7PWS,     0.26, 3,   boost,  138.27,  73344.00, 2643.69,    8.76,   42.89, 11.9, 3.87, 3.91, 3.89, 148.82,  -2.44,  -2.15, -68.65,   0.21, -23.51,   0.27,  -0.17,  -0.17,   6.53, 3.89, 0.00, 0.00, 3.92, 0.00, 1, 1,  9,  39.0159228,-105.7106832,  2682.0, 2024,  4, 28, 17, 32, 40,        0,        0,   0,   0,   1.9,   1.0,   1.6,  0,  0, 33,  0,  0, 13,  0,  0,  0,  0, 27, 21,  0, 39,  0,  0, 38,  0, 28,  0,  0, 32,  0, 30,  0,  0,  0,  0,  0,  0,  0,  0
6, 11016, 5,KK7PWS,     0.27, 3,   boost,  135.33,  73341.00, 2644.02,    9.08,   44.25, 11.9, 3.87, 3.91, 3.89, 149.07,   1.17,   0.35, -67.92,   1.61, -25.77,   0.26,  -0.16,  -0.18,   6.78, 3.89, 0.00, 0.00, 3.92, 0.00, 1, 1,  9,  39.0159228,-105.7106832,  2682.0, 2024,  4, 28, 17, 32, 40,        0,        0,   0,   0,   1.9,   1.0,   1.6,  0,  0, 33,  0,  0, 13,  0,  0,  0,  0, 27, 21,  0, 39,  0,  0, 38,  0, 28,  0,  0, 32,  0, 30,  0,  0,  0,  0,  0,  0,  0,  0
6, 11016, 5,KK7PWS,     0.28, 3,   boost,  136.80,  73341.00, 2644.02,    9.08,   45.61, 11.9, 3.87, 3.91, 3.89, 148.94,   5.94,  -0.15, -67.55,   1.91, -24.85,   0.26,  -0.16,  -0.18,   7.02, 3.89, 0.00, 0.00, 3.92, 0.00, 1, 1,  9,  39.0159228,-105.7106832,  2682.0, 2024,  4, 28, 17, 32, 40,        0,        0,   0,   0,   1.9,   1.0,   1.6,  0,  0, 33,  0,  0, 13,  0,  0,  0,  0, 27, 21,  0, 39,  0,  0, 38,  0, 28,  0,  0, 32,  0, 30,  0,  0,  0,  0,  0,  0,  0,  0
6, 11016, 5,KK7PWS,     0.29, 3,   boost,  136.80,  73318.00, 2646.50,   11.57,   46.97, 11.9, 3.87, 3.91, 3.89, 149.15,   3.83,  -1.34, -68.10,   3.07, -22.11,   0.27,  -0.16,  -0.18,   7.23, 3.89, 0.00, 0.00, 3.92, 0.00, 1, 1,  9,  39.0159228,-105.7106832,  2682.0, 2024,  4, 28, 17, 32, 40,        0,        0,   0,   0,   1.9,   1.0,   1.6,  0,  0, 33,  0,  0, 13,  0,  0,  0,  0, 27, 21,  0, 39,  0,  0, 38,  0, 28,  0,  0, 32,  0, 30,  0,  0,  0,  0,  0,  0,  0,  0
6, 11016, 5,KK7PWS,     0.30, 3,   boost,  137.78,  73318.00, 2646.50,   11.57,   48.32, 11.9, 3.87, 3.91, 3.89, 148.89,   0.11,   0.09, -68.83,   4.11, -20.34,   0.27,  -0.15,  -0.18,   7.42, 3.89, 0.00, 0.00, 3.92, 0.00, 1, 1,  9,  39.0159228,-105.7106832,  2682.0, 2024,  4, 28, 17, 32, 40,        0,        0,   0,   0,   1.9,   1.0,   1.6,  0,  0, 33,  0,  0, 13,  0,  0,  0,  0, 27, 21,  0, 39,  0,  0, 38,  0, 28,  0,  0, 32,  0, 30,  0,  0,  0,  0,  0,  0,  0,  0
6, 11016, 5,KK7PWS,     0.31, 3,   boost,  136.31,  73312.00, 2647.15,   12.22,   49.67, 11.9, 3.87, 3.91, 3.89, 148.41,   2.08,  -0.48, -69.20,   5.03, -20.58,   0.26,  -0.15,  -0.18,   7.61, 3.89, 0.00, 0.00, 3.92, 0.00, 1, 1,  9,  39.0159228,-105.7106832,  2682.0, 2024,  4, 28, 17, 32, 40,        0,        0,   0,   0,   1.9,   1.0,   1.6,  0,  0, 33,  0,  0, 13,  0,  0,  0,  0, 27, 21,  0, 39,  0,  0, 38,  0, 28,  0,  0, 32,  0, 30,  0,  0,  0,  0,  0,  0,  0,  0
6, 11016, 5,KK7PWS,     0.32, 3,   boost,  135.33,  73312.00, 2647.15,   12.22,   51.02, 11.9, 3.87, 3.91, 3.89, 148.02,   4.32,  -0.41, -69.20,   5.64, -19.79,   0.26,  -0.15,  -0.19,   7.79, 3.89, 0.00, 0.00, 3.92, 0.00, 1, 1,  9,  39.0159228,-105.7106832,  2682.0, 2024,  4, 28, 17, 32, 40,        0,        0,   0,   0,   1.9,   1.0,   1.6,  0,  0, 33,  0,  0, 13,  0,  0,  0,  0, 27, 21,  0, 39,  0,  0, 38,  0, 28,  0,  0, 32,  0, 30,  0,  0,  0,  0,  0,  0,  0,  0
6, 11016, 5,KK7PWS,     0.33, 3,   boost,  135.82,  73307.00, 2647.69,   12.76,   52.37, 11.9, 3.87, 3.91, 3.89, 147.69,   3.19,  -0.10, -69.57,   6.37, -18.14,   0.26,  -0.15,  -0.19,   7.95, 3.89, 0.00, 0.00, 3.92, 0.00, 1, 1,  9,  39.0159228,-105.7106832,  2682.0, 2024,  4, 28, 17, 32, 40,        0,        0,   0,   0,   1.9,   1.0,   1.6,  0,  0, 33,  0,  0, 13,  0,  0,  0,  0, 27, 21,  0, 39,  0,  0, 38,  0, 28,  0,  0, 32,  0, 30,  0,  0,  0,  0,  0,  0,  0,  0
6, 11016, 5,KK7PWS,     0.34, 3,   boost,  136.80,  73307.00, 2647.69,   12.76,   53.72, 11.9, 3.89, 3.91, 3.89, 147.41,   1.59,  -0.34, -69.50,   6.86, -16.92,   0.26,  -0.15,  -0.19,   8.11, 3.90, 0.00, 0.00, 3.91, 0.24, 1, 1,  9,  39.0159228,-105.7106832,  2682.0, 2024,  4, 28, 17, 32, 40,        0,        0,   0,   0,   1.9,   1.0,   1.6,  0,  0, 33,  0,  0, 13,  0,  0,  0,  0, 27, 21,  0, 39,  0,  0, 38,  0, 28,  0,  0, 32,  0, 30,  0,  0,  0,  0,  0,  0,  0,  0
6, 11016, 5,KK7PWS,     0.34, 3,   boost,  136.80,  73307.00, 2647.69,   12.76,   53.72, 11.9, 3.89, 3.91, 3.89, 147.41,   1.59,  -0.34, -69.50,   6.86, -16.92,   0.26,  -0.15,  -0.19,   8.11, 3.90, 0.00, 0.00, 3.91, 0.24, 1, 1,  9,  39.0159228,-105.7106832,  2682.0, 2024,  4, 28, 17, 32, 40,        0,        0,   0,   0,   1.9,   1.0,   1.6,  0,  0, 33,  0,  0, 13,  0,  0,  0,  0, 27, 21,  0, 39,  0,  0, 38,  0, 28,  0,  0, 32,  0, 30,  0,  0,  0,  0,  0,  0,  0,  0
6, 11016, 5,KK7PWS,     0.35, 3,   boost,  135.82,  73305.00, 2647.91,   12.97,   55.07, 11.9, 3.89, 3.91, 3.89, 147.35,   3.07,  -0.53, -70.05,   8.02, -16.00,   0.27,  -0.14,  -0.19,   8.25, 3.90, 0.00, 0.00, 3.91, 0.24, 1, 1,  9,  39.0159228,-105.7106832,  2682.0, 2024,  4, 28, 17, 32, 40,        0,        0,   0,   0,   1.9,   1.0,   1.6,  0,  0, 33,  0,  0, 13,  0,  0,  0,  0, 27, 21,  0, 39,  0,  0, 38,  0, 28,  0,  0, 32,  0, 30,  0,  0,  0,  0,  0,  0,  0,  0
6, 11016, 5,KK7PWS,     0.36, 3,   boost,  136.80,  73305.00, 2647.91,   12.97,   56.41, 11.9, 3.89, 3.91, 3.89, 147.33,   3.89,  -0.36, -68.71,   8.45, -14.72,   0.27,  -0.14,  -0.19,   8.37, 3.90, 0.00, 0.00, 3.91, 0.24, 1, 1,  9,  39.0159228,-105.7106832,  2682.0, 2024,  4, 28, 17, 32, 40,        0,        0,   0,   0,   1.9,   1.0,   1.6,  0,  0, 33,  0,  0, 13,  0,  0,  0,  0, 27, 21,  0, 39,  0,  0, 38,  0, 28,  0,  0, 32,  0, 30,  0,  0,  0,  0,  0,  0,  0,  0
6, 11016, 5,KK7PWS,     0.37, 3,   boost,  135.82,  73289.00, 2649.64,   14.71,   57.75, 11.9, 3.89, 3.91, 3.89, 147.63,   2.68,  -0.41, -71.82,   9.48, -13.13,   0.27,  -0.13,  -0.19,   8.48, 3.90, 0.00, 0.00, 3.91, 0.24, 1, 1,  9,  39.0159228,-105.7106832,  2682.0, 2024,  4, 28, 17, 32, 40,        0,        0,   0,   0,   1.9,   1.0,   1.6,  0,  0, 33,  0,  0, 13,  0,  0,  0,  0, 27, 21,  0, 39,  0,  0, 38,  0, 28,  0,  0, 32,  0, 30,  0,  0,  0,  0,  0,  0,  0,  0
6, 11016, 5,KK7PWS,     0.38, 3,   boost,  135.33,  73289.00, 2649.64,   14.71,   59.09, 11.9, 3.89, 3.91, 3.89, 147.46,   2.79,  -0.92, -72.98,  10.22, -11.42,   0.27,  -0.13,  -0.20,   8.57, 3.90, 0.00, 0.00, 3.91, 0.24, 1, 1,  9,  39.0159228,-105.7106832,  2682.0, 2024,  4, 28, 17, 32, 40,        0,        0,   0,   0,   1.9,   1.0,   1.6,  0,  0, 33,  0,  0, 13,  0,  0,  0,  0, 27, 21,  0, 39,  0,  0, 38,  0, 28,  0,  0, 32,  0, 30,  0,  0,  0,  0,  0,  0,  0,  0
6, 11016, 5,KK7PWS,     0.39, 3,   boost,  135.33,  73291.00, 2649.43,   14.49,   60.43, 11.9, 3.89, 3.91, 3.89, 146.96,   3.66,  -0.52, -75.85,  11.44, -10.33,   0.27,  -0.13,  -0.20,   8.65, 3.90, 0.00, 0.00, 3.91, 0.24, 1, 1,  9,  39.0159228,-105.7106832,  2682.0, 2024,  4, 28, 17, 32, 40,        0,        0,   0,   0,   1.9,   1.0,   1.6,  0,  0, 33,  0,  0, 13,  0,  0,  0,  0, 27, 21,  0, 39,  0,  0, 38,  0, 28,  0,  0, 32,  0, 30,  0,  0,  0,  0,  0,  0,  0,  0
6, 11016, 5,KK7PWS,     0.40, 3,   boost,  133.37,  73291.00, 2649.43,   14.49,   61.76, 11.9, 3.89, 3.91, 3.89, 146.90,   3.56,  -0.48, -77.32,  12.29,  -9.11,   0.27,  -0.13,  -0.20,   8.72, 3.90, 0.00, 0.00, 3.91, 0.24, 1, 1,  9,  39.0159228,-105.7106832,  2682.0, 2024,  4, 28, 17, 32, 40,        0,        0,   0,   0,   1.9,   1.0,   1.6,  0,  0, 33,  0,  0, 13,  0,  0,  0,  0, 27, 21,  0, 39,  0,  0, 38,  0, 28,  0,  0, 32,  0, 30,  0,  0,  0,  0,  0,  0,  0,  0
6, 11016, 5,KK7PWS,     0.41, 3,   boost,  134.35,  73267.00, 2652.02,   17.09,   63.09, 11.9, 3.89, 3.91, 3.89, 146.87,   3.08,  -0.78, -78.60,  13.69,  -7.15,   0.26,  -0.13,  -0.20,   8.76, 3.90, 0.00, 0.00, 3.91, 0.24, 1, 1,  9,  39.0159228,-105.7106832,  2682.0, 2024,  4, 28, 17, 32, 40,        0,        0,   0,   0,   1.9,   1.0,   1.6,  0,  0, 33,  0,  0, 13,  0,  0,  0,  0, 27, 21,  0, 39,  0,  0, 38,  0, 28,  0,  0, 32,  0, 30,  0,  0,  0,  0,  0,  0,  0,  0
6, 11016, 5,KK7PWS,     0.42, 3,   boost,  134.35,  73267.00, 2652.02,   17.09,   64.42, 11.9, 3.89, 3.91, 3.89, 146.58,   3.66,  -0.59, -80.92,  14.37,  -5.44,   0.26,  -0.13,  -0.21,   8.79, 3.90, 0.00, 0.00, 3.91, 0.24, 1, 1,  9,  39.0159228,-105.7106832,  2682.0, 2024,  4, 28, 17, 32, 40,        0,        0,   0,   0,   1.9,   1.0,   1.6,  0,  0, 33,  0,  0, 13,  0,  0,  0,  0, 27, 21,  0, 39,  0,  0, 38,  0, 28,  0,  0, 32,  0, 30,  0,  0,  0,  0,  0,  0,  0,  0
6, 11016, 5,KK7PWS,     0.43, 3,   boost,  134.35,  73265.00, 2652.24,   17.30,   65.74, 11.9, 3.89, 3.91, 3.89, 146.46,   4.04,  -0.37, -83.66,  15.59,  -3.98,   0.26,  -0.12,  -0.21,   8.80, 3.90, 0.00, 0.00, 3.91, 0.24, 1, 1,  9,  39.0159228,-105.7106832,  2682.0, 2024,  4, 28, 17, 32, 40,        0,        0,   0,   0,   1.9,   1.0,   1.6,  0,  0, 33,  0,  0, 13,  0,  0,  0,  0, 27, 21,  0, 39,  0,  0, 38,  0, 28,  0,  0, 32,  0, 30,  0,  0,  0,  0,  0,  0,  0,  0
6, 11016, 5,KK7PWS,     0.44, 3,   boost,  134.84,  73265.00, 2652.24,   17.30,   67.07, 11.9, 3.89, 3.91, 3.89, 145.92,   3.44,  -0.80, -87.69,  16.81,  -1.78,   0.26,  -0.12,  -0.21,   8.78, 3.90, 0.00, 0.00, 3.91, 0.24, 1, 1,  9,  39.0159228,-105.7106832,  2682.0, 2024,  4, 28, 17, 32, 40,        0,        0,   0,   0,   1.9,   1.0,   1.6,  0,  0, 33,  0,  0, 13,  0,  0,  0,  0, 27, 21,  0, 39,  0,  0, 38,  0, 28,  0,  0, 32,  0, 30,  0,  0,  0,  0,  0,  0,  0,  0
6, 11016, 5,KK7PWS,     0.45, 3,   boost,  133.86,  73258.00, 2653.00,   18.06,   68.39, 11.9, 3.89, 3.91, 3.89, 145.85,   3.41,  -0.36, -90.81,  17.54,  -0.44,   0.26,  -0.12,  -0.21,   8.76, 3.90, 0.00, 0.00, 3.91, 0.24, 1, 1,  9,  39.0159228,-105.7106832,  2682.0, 2024,  4, 28, 17, 32, 40,        0,        0,   0,   0,   1.9,   1.0,   1.6,  0,  0, 33,  0,  0, 13,  0,  0,  0,  0, 27, 21,  0, 39,  0,  0, 38,  0, 28,  0,  0, 32,  0, 30,  0,  0,  0,  0,  0,  0,  0,  0
6, 11016, 5,KK7PWS,     0.46, 3,   boost,  134.35,  73258.00, 2653.00,   18.06,   69.72, 11.9, 3.89, 3.91, 3.89, 145.67,   4.33,  -0.52, -93.43,  19.00,   1.15,   0.26,  -0.11,  -0.22,   8.71, 3.90, 0.00, 0.00, 3.91, 0.24, 1, 1,  9,  39.0159228,-105.7106832,  2682.0, 2024,  4, 28, 17, 32, 40,        0,        0,   0,   0,   1.9,   1.0,   1.6,  0,  0, 33,  0,  0, 13,  0,  0,  0,  0, 27, 21,  0, 39,  0,  0, 38,  0, 28,  0,  0, 32,  0, 30,  0,  0,  0,  0,  0,  0,  0,  0
6, 11016, 5,KK7PWS,     0.47, 3,   boost,  134.84,  73253.00, 2653.54,   18.60,   71.04, 11.9, 3.89, 3.91, 3.89, 145.66,   3.27,  -0.29, -97.28,  19.74,   2.61,   0.26,  -0.11,  -0.22,   8.65, 3.90, 0.00, 0.00, 3.91, 0.24, 1, 1,  9,  39.0159228,-105.7106832,  2682.0, 2024,  4, 28, 17, 32, 40,        0,        0,   0,   0,   1.9,   1.0,   1.6,  0,  0, 33,  0,  0, 13,  0,  0,  0,  0, 27, 21,  0, 39,  0,  0, 38,  0, 28,  0,  0, 32,  0, 30,  0,  0,  0,  0,  0,  0,  0,  0
6, 11016, 5,KK7PWS,     0.48, 3,   boost,  132.88,  73253.00, 2653.54,   18.60,   72.36, 11.9, 3.89, 3.91, 3.89, 145.56,   3.25,  -0.22, -99.59,  20.96,   3.96,   0.26,  -0.11,  -0.22,   8.58, 3.90, 0.00, 0.00, 3.91, 0.24, 1, 1,  9,  39.0159228,-105.7106832,  2682.0, 2024,  4, 28, 17, 32, 40,        0,        0,   0,   0,   1.9,   1.0,   1.6,  0,  0, 33,  0,  0, 13,  0,  0,  0,  0, 27, 21,  0, 39,  0,  0, 38,  0, 28,  0,  0, 32,  0, 30,  0,  0,  0,  0,  0,  0,  0,  0
6, 11016, 5,KK7PWS,     0.49, 3,   boost,  133.37,  73241.00, 2654.84,   19.90,   73.68, 11.9, 3.89, 3.91, 3.89, 145.06,   3.90,  -0.37,-102.65,  22.36,   4.81,   0.26,  -0.11,  -0.23,   8.49, 3.90, 0.00, 0.00, 3.91, 0.24, 1, 1,  9,  39.0159228,-105.7106832,  2682.0, 2024,  4, 28, 17, 32, 40,        0,        0,   0,   0,   1.9,   1.0,   1.6,  0,  0, 33,  0,  0, 13,  0,  0,  0,  0, 27, 21,  0, 39,  0,  0, 38,  0, 28,  0,  0, 32,  0, 30,  0,  0,  0,  0,  0,  0,  0,  0
6, 11016, 5,KK7PWS,     0.50, 3,   boost,  132.39,  73241.00, 2654.84,   19.90,   75.00, 11.9, 3.89, 3.91, 3.89, 144.90,   3.36,   0.01,-105.03,  22.85,   5.48,   0.26,  -0.11,  -0.23,   8.41, 3.90, 0.00, 0.00, 3.91, 0.24, 1, 1,  9,  39.0159228,-105.7106832,  2682.0, 2024,  4, 28, 17, 32, 40,        0,        0,   0,   0,   1.9,   1.0,   1.6,  0,  0, 33,  0,  0, 13,  0,  0,  0,  0, 27, 21,  0, 39,  0,  0, 38,  0, 28,  0,  0, 32,  0, 30,  0,  0,  0,  0,  0,  0,  0,  0
6, 11016, 5,KK7PWS,     0.51, 3,   boost,  132.88,  73238.00, 2655.16,   20.23,   76.31, 11.9, 3.89, 3.91, 3.89, 144.39,   2.86,   0.14,-108.93,  24.19,   6.52,   0.26,  -0.10,  -0.23,   8.31, 3.90, 0.00, 0.00, 3.91, 0.24, 1, 1,  9,  39.0159228,-105.7106832,  2682.0, 2024,  4, 28, 17, 32, 40,        0,        0,   0,   0,   1.9,   1.0,   1.6,  0,  0, 33,  0,  0, 13,  0,  0,  0,  0, 27, 21,  0, 39,  0,  0, 38,  0, 28,  0,  0, 32,  0, 30,  0,  0,  0,  0,  0,  0,  0,  0
6, 11016, 5,KK7PWS,     0.52, 3,   boost,  132.88,  73238.00, 2655.16,   20.23,   77.62, 11.9, 3.89, 3.91, 3.89, 144.33,   3.27,  -0.02,-112.66,  24.01,   7.19,   0.26,  -0.10,  -0.24,   8.20, 3.90, 0.00, 0.00, 3.91, 0.24, 1, 1,  9,  39.0159228,-105.7106832,  2682.0, 2024,  4, 28, 17, 32, 40,        0,        0,   0,   0,   1.9,   1.0,   1.6,  0,  0, 33,  0,  0, 13,  0,  0,  0,  0, 27, 21,  0, 39,  0,  0, 38,  0, 28,  0,  0, 32,  0, 30,  0,  0,  0,  0,  0,  0,  0,  0
6, 11016, 5,KK7PWS,     0.53, 3,   boost,  131.41,  73233.00, 2655.70,   20.77,   78.93, 11.9, 3.89, 3.91, 3.89, 144.08,   3.11,   0.47,-115.28,  25.17,   7.98,   0.25,  -0.10,  -0.24,   8.09, 3.90, 0.00, 0.00, 3.91, 0.24, 1, 1,  9,  39.0159228,-105.7106832,  2682.0, 2024,  4, 28, 17, 32, 40,        0,        0,   0,   0,   1.9,   1.0,   1.6,  0,  0, 33,  0,  0, 13,  0,  0,  0,  0, 27, 21,  0, 39,  0,  0, 38,  0, 28,  0,  0, 32,  0, 30,  0,  0,  0,  0,  0,  0,  0,  0
6, 11016, 5,KK7PWS,     0.54, 3,   boost,  131.41,  73233.00, 2655.70,   20.77,   80.23, 11.9, 3.89, 3.91, 3.89, 144.03,   2.56,   0.53,-118.76,  25.84,   8.05,   0.25,  -0.10,  -0.24,   7.98, 3.90, 0.00, 0.00, 3.91, 0.24, 1, 1,  9,  39.0159228,-105.7106832,  2682.0, 2024,  4, 28, 17, 32, 40,        0,        0,   0,   0,   1.9,   1.0,   1.6,  0,  0, 33,  0,  0, 13,  0,  0,  0,  0, 27, 21,  0, 39,  0,  0, 38,  0, 28,  0,  0, 32,  0, 30,  0,  0,  0,  0,  0,  0,  0,  0
6, 11016, 5,KK7PWS,     0.55, 3,   boost,  132.39,  73226.00, 2656.46,   21.52,   81.54, 11.9, 3.89, 3.91, 3.89, 144.19,   2.83,   0.40,-122.30,  26.21,   8.59,   0.25,  -0.10,  -0.24,   7.87, 3.90, 0.00, 0.00, 3.91, 0.24, 1, 1,  9,  39.0159228,-105.7106832,  2682.0, 2024,  4, 28, 17, 32, 40,        0,        0,   0,   0,   1.9,   1.0,   1.6,  0,  0, 33,  0,  0, 13,  0,  0,  0,  0, 27, 21,  0, 39,  0,  0, 38,  0, 28,  0,  0, 32,  0, 30,  0,  0,  0,  0,  0,  0,  0,  0
